[
    {
        "id":1,
        "name": "محكمة حلب الإبتدائية",
        "location": "حلب - حي الجامعة",
        "province": "حلب"
    },
    {
        "id":2,
        "name": "محكمة دمشق الجزائية",
        "location": "دمشق - باب توما",
        "province": "دمشق"
    },
    {
        "id":3,
        "name": "محكمة حمص الإبتدائية",
        "location": "حمص - المشرفة",
        "province": "حمص"
    },
    {
        "id":4,
        "name": "محكمة طرطوس الجزائية",
        "location": "طرطوس - البحرية",
        "province": "طرطوس"
    },
    {
        "id":5,
        "name": "محكمة حماة الإبتدائية",
        "location": "حماة - باب الجديد",
        "province": "حماة"
    },
    {
        "id":6,
        "name": "محكمة اللاذقية الجزائية",
        "location": "اللاذقية - الميناء",
        "province": "اللاذقية"
    },
    {
        "id":7,
        "name": "محكمة الرقة الإبتدائية",
        "location": "الرقة - الكرامة",
        "province": "الرقة"
    },
    {
        "id":8,
        "name": "محكمة الحسكة الجزائية",
        "location": "الحسكة - السكن الجامعي",
        "province": "الحسكة"
    },
    {
        "id":9,
        "name": "محكمة السويداء الإبتدائية",
        "location": "السويداء - المحافظة",
        "province": "السويداء"
    },
    {
        "id":10,
        "name": "محكمة درعا الجزائية",
        "location": "درعا - المدينة",
        "province": "درعا"
    }
]